[
  {
    "name": "Centennial",
    "state": "Colorado",
    "country": "United States",
    "country_code":"US",
    "id": "1",
    "imgbefore": "https://raw.githubusercontent.com/villyaraujo/CoView/master/graph/before03_top-golf-and-walmart_centennial-colorado_10march2020_ge1.jpg",
    "imgafter": "https://raw.githubusercontent.com/villyaraujo/CoView/master/graph/aftere04_top-golf-and-walmart_centennial-colorado_24march2020_wv2.jpg",
    "lat": 39.588740,
    "long": -104.865038,
    "details":"test"
  },
  {
    "name": "Wuhan",
    "state": "Hubei",
    "country": "China",
    "country_code":"CN",
    "id": "2",
    "imgbefore": "https://raw.githubusercontent.com/villyaraujo/CoView/master/graph/CHINA%20-%20260519.png",
    "imgafter": "https://raw.githubusercontent.com/villyaraujo/CoView/master/graph/CHINA%20-%20260520.png",
    "lat": 30.525768,
    "long": 114.164254,
    "details":"test"
  },
  {
    "name": "Venice Province",
    "state": "Venice",
    "country": "Italy",
    "country_code":"IT",
    "id": "3",
    "imgbefore": "https://raw.githubusercontent.com/villyaraujo/CoView/master/graph/italia_antes.png",
    "imgafter": "https://raw.githubusercontent.com/villyaraujo/CoView/master/graph/italia_depois.png",
    "lat": 45.440566,
    "long": 12.349277,
    "details":"It is possible to identify a bigger quantity of phytoplankton, related to the 2020 year, as well as the moving of aquatic transport, boats, and ships. Because of social isolation, there was a decrease of phytoplankton, making water cleaner and also of transportation, generating Ambiental and economic impact, respectively."
  },
  {
    "name": "Theran Province",
    "state": "Theran",
    "country": "Iran",
    "country_code":"IR",
    "id": "4",
    "imgbefore": "https://raw.githubusercontent.com/villyaraujo/CoView/master/graph/Tehran%20Airport%20-%20Before%20COVID%20-%2035%C2%B024_31.5_N%2051%C2%B009_17.9_E%20_%2035.408761%2C%2051.154960.JPG",
    "imgafter": "https://raw.githubusercontent.com/villyaraujo/CoView/master/graph/Tehran%20Airport%20-%20During%20COVID%20-%2035%C2%B024_31.5_N%2051%C2%B009_17.9_E%20_%2035.408761%2C%2051.154960.JPG",
    "lat": 35.408761,
    "long": 51.154960,
    "details":"test"
  },
  {
    "name": "Haratal Bab And Ash Shamiyyah",
    "state": "Mecca",
    "country": "Saudi Arabia",
    "country_code":"IR",
    "id": "5",
    "imgbefore": "https://raw.githubusercontent.com/villyaraujo/CoView/master/graph/holy%20city%20of%20Mecca%20Saudi%20Arabia%20-%20Before%20COVID%20-%2021%C2%B025_34.7_N%2039%C2%B049_15.1_E%20_%2021.426302%2C%2039.820873.JPG",
    "imgafter": "https://raw.githubusercontent.com/villyaraujo/CoView/master/graph/holy%20city%20of%20Mecca%20Saudi%20Arabia%20-%20During%20COVID%20-%2021%C2%B025_34.7_N%2039%C2%B049_15.1_E%20_%2021.426302%2C%2039.820873JPG.jpg",
    "lat": 21.426302,
    "long": 39.820873,
    "details":"test"
  },
  {
    "name": "San Francisco",
    "state": "California",
    "country": "United States",
    "country_code":"US",
    "id": "6",
    "imgbefore": "https://api.nasa.gov/planetary/earth/imagery?lon=114.283333&lat=30.583332&date=2019-12-01&dim=0.18&api_key=iHEiD3KDFWgl0Cf51x52rlF4TT05ewA6W8gAQrmJ",
    "imgafter": "",
    "lat": 37.7749,
    "long": 122.4194,
    "details":"test"
  },
  {
    "name": "Gotland",
    "state": "Island",
    "country": "Sweden",
    "country_code":"SE",
    "id": "7",
    "imgbefore": "",
    "imgafter": "",
    "lat": 57.4684,
    "long": 18.4867,
    "details":"test"
  },
  {
    "name": "Abu Dhabi",
    "state": "Abu Dhabi",
    "country": "United Arab Emirates",
    "country_code":"AE",
    "id": "8",
    "imgbefore": "",
    "imgafter": "",
    "lat": 24.468240,
    "long": 54.330178,
    "details":"test"
  },
  {
    "name": "Ashidahakkano",
    "state": "Tateshina - Kitasaku District",
    "country": "Japan",
    "country_code":"JP",
    "id": "9",
    "imgbefore": "https://raw.githubusercontent.com/villyaraujo/CoView/master/graph/Japa%CC%83o%20-%20260519.png",
    "imgafter": "https://raw.githubusercontent.com/villyaraujo/CoView/master/graph/Japa%CC%83o%20-%20260520.png",
    "lat": 36.102295,
    "long": 138.290737,
    "details":"test"
  },
  {
    "name": "Baokang County",
    "state": "Xiangyang",
    "country": "China",
    "country_code":"CN",
    "id": "10",
    "imgbefore": "",
    "imgafter": "",
    "lat": 31.756575,
    "long": 111.037093,
    "details":"test"
  },
  {
    "name": "Emthanjeni",
    "state": "Municipality",
    "country": "South Africa",
    "country_code":"ZA",
    "id": "11",
    "imgbefore": "",
    "imgafter": "",
    "lat": -30.590734,
    "long": 24.244835,
    "details":"test"
  },
  {
    "name": "Old Town",
    "state": "Toledo",
    "country": "Spain",
    "country_code":"ES",
    "id": "13",
    "imgbefore": "https://raw.githubusercontent.com/villyaraujo/CoView/master/graph/ESP%20-%20260519.png",
    "imgafter":"https://raw.githubusercontent.com/villyaraujo/CoView/master/graph/ESP%20-%20260520.png",
    "lat": 39.861661,
    "long": -4.023465,
    "details":"test"
  },
  {
    "name": "Leon County",
    "state": "Florida",
    "country": "United States",
    "country_code":"US",
    "id": "14",
    "imgbefore": "https://raw.githubusercontent.com/villyaraujo/CoView/master/graph/COSTA%20LESTE%20-%20260519.png",
    "imgafter": "https://raw.githubusercontent.com/villyaraujo/CoView/master/graph/COSTA%20LESTE%20-%20260520.png",
    "lat": 30.505093,
    "long": -84.305346,
    "details":"test"
  },
  {
    "name": "Black Sea",
    "state": "Black Sea",
    "country": "Black Sea",
    "country_code":"",
    "id": "15",
    "imgbefore": "https://raw.githubusercontent.com/villyaraujo/CoView/master/graph/Mar%20negro%20-%20250419.png",
    "imgafter": "https://raw.githubusercontent.com/villyaraujo/CoView/master/graph/Mar%20negro%20-%20250420.png",
    "lat": 43.743722,
    "long": 34.249761,
    "details":"test"
  },
  {
    "name": "Yellow Sea",
    "state": "Yellow Sea",
    "country": "Yellow Sea",
    "country_code":"",
    "id": "16",
    "imgbefore": "https://raw.githubusercontent.com/villyaraujo/CoView/master/graph/Mar%20Amarelo%20-%20250419.png",
    "imgafter": "https://raw.githubusercontent.com/villyaraujo/CoView/master/graph/Mar%20Amarelo%20-%20250420.png",
    "lat": 36.053680,
    "long": 123.728216,
    "details":"test"
  },
  {
    "name": "Gulf of Bothnia",
    "state": "Gulf of Bothnia",
    "country": "Gulf of Bothnia",
    "country_code":"",
    "id": "17",
    "imgbefore": "",
    "imgafter": "",
    "lat": 62.081794,
    "long": 19.466264,
    "details":"test"
  },
  {
    "name": "Kiruna N",
    "state": "Province of Lapland",
    "country": "Sweden",
    "country_code":"",
    "id": "18",
    "imgbefore": "",
    "imgafter": "",
    "lat": 62.081794,
    "long": 19.466264,
    "details":"test"
  }
]
